stop_id,stop_code,stop_name,stop_lat,stop_lon,location_type
1024,1024,St James & 4600 Block,45.655151,-122.637321,0
2053,2053,Andresen & Mill Plain,45.625919,-122.60186,0
2054,2054,Andresen & Louisiana Dr,45.61948,-122.60231,0
2055,2055,Andresen & St Joseph Church,45.617504,-122.602188,0
2056,2056,Evergreen Blvd & 3400 Block,45.625191,-122.634048,0
2057,2057,Evergreen Blvd & U St,45.625854,-122.650093,0
2058,2058,Evergreen Blvd & Reserve St,45.62595,-122.653458,0
2059,2059,Evergreen Blvd & 1200 Block,45.62746,-122.658119,0
2060,2060,Evergreen Blvd & Howard House,45.628658,-122.664246,0
4109,4109,Fourth Plain & 137th Ave,45.672352,-122.532707,0
2062,2062,Evergreen Blvd & 1200 Block,45.627522,-122.658401,0
2063,2063,Evergreen Blvd & U St,45.625851,-122.650047,0
2065,2065,Evergreen Blvd & Beech St,45.625069,-122.633911,0
300,300,NE 138th Ave & 22nd St,45.638409,-122.5308,0
2069,2069,Andresen & Wichita Dr,45.62429,-122.601563,0
2070,2070,Andresen & Mill Plain,45.626499,-122.601593,0
4119,4119,Covington Rd & 102nd Ave,45.672001,-122.568268,0
3076,3076,SE Grace & Rasmussen,45.775974,-122.526978,0
4122,4122,NE 102nd Ave & 63rd St,45.668201,-122.568298,0
2735,2735,NE 78th St & 25th Ave,45.67878,-122.646729,0
2078,2078,St Johns & 7300 Block,45.675442,-122.630379,0
2079,2079,St Johns & 43rd Ave,45.676952,-122.626663,0
2080,2080,St Johns & 8600 Block,45.684391,-122.625549,0
2736,2736,NE 78th St & 19th Ct,45.678711,-122.652771,0
2082,2082,St James & Cherry Rd,45.649769,-122.639923,0
2737,2737,NE 78th St & 1600 Block,45.67868,-122.655937,0
4137,4137,Kauffman & Fourth Plain,45.641029,-122.680908,0
4138,4138,Kauffman & 25th St,45.640034,-122.680946,0
4103,4103,NE 88th St & 19th Ct,45.685982,-122.652863,0
2093,2093,St Johns & 8900 Block,45.687038,-122.62429,0
2095,2095,St Johns & 7900 Block,45.680038,-122.625732,0
4104,4104,NE 88th St & 15th Ave,45.685951,-122.658051,0
2098,2098,St James & 59th St,45.664871,-122.638321,0
2099,2099,St James & 50th Cir,45.657711,-122.637779,0
4148,4148,Hazel Dell Ave & 5200 Block,45.660011,-122.667381,0
4149,4149,Hazel Dell Ave & 4900 Block,45.657242,-122.666878,0
4150,4150,Hwy 99 & 117th St,45.705811,-122.649498,0
4151,4151,Hwy 99 & 122nd St,45.709518,-122.649269,0
2104,2104,Ft Vancouver Wy & O'Connell Sports Center,45.634762,-122.65583,0
4153,4153,NE 94th St & Hazel Dell Ave,45.689621,-122.668655,0
2106,2106,Mill Plain & 98th Ave,45.62096,-122.57209,0
2866,2866,Evergreen Blvd & Shorewood Dr,45.618271,-122.615646,0
2108,2108,Mill Plain & 126th Ave,45.619469,-122.541603,0
4159,4159,W Main & 1700 Block,45.780579,-122.555267,0
2113,2113,NE 12th St & Garrison Rd,45.630039,-122.591042,0
2114,2114,Mill Plain & Garrison Rd,45.624344,-122.591087,0
2115,2115,Mill Plain & Missoula,45.6283,-122.609619,0
4164,4164,W 11th St & Grant,45.629642,-122.677994,0
2117,2117,Mill Plain & Ogden Ave,45.628735,-122.619179,0
6019,6019,SW Campus Dr & Terwilliger,45.499195,-122.68261,0
4108,4108,Ward Rd & Fourth Plain,45.67305,-122.521156,0
2123,2123,NW 6th Ave & Ash St,45.58535,-122.408768,0
2124,2124,NW 6th Ave & Georgia Pacific,45.585159,-122.41114,0
2125,2125,NW 6th Ave & 400 Block,45.585072,-122.413033,0
4174,4174,NW 99th St & 9th Ave,45.692951,-122.680038,0
2127,2127,NW 6th Ave & 600 Block,45.584599,-122.415733,0
4176,4176,NW 119th St & 33rd Ave,45.70726,-122.705147,0
2744,2744,NE 99th St & Gaiser Middle School,45.6931,-122.640221,0
2130,2130,SE 164th Ave & 1400 Block,45.611481,-122.50396,0
4179,4179,Tenny Rd & Fred Meyer,45.720169,-122.664497,0
4180,4180,NW 139th St & 600 Block,45.721809,-122.676498,0
4110,4110,Fourth Plain & 131st Ave,45.670979,-122.538307,0
4182,4182,NW 119th St & 35th Ave,45.707062,-122.707169,0
4183,4183,Lincoln & 53rd St,45.66095,-122.682549,0
4184,4184,Lincoln & 49th St,45.658081,-122.682564,0
2137,2137,Mill Plain & 160th Ave,45.616005,-122.50898,0
2138,2138,Mill Plain & 155th Ave,45.616886,-122.515572,0
2139,2139,Mill Plain & Hearthwood,45.61771,-122.52327,0
2140,2140,Mill Plain & 136th Ave,45.618401,-122.531837,0
2141,2141,Mill Plain & 136th Ave,45.618839,-122.533333,0
3192,3192,SW Sam Jackson Pk & OHSU,45.499359,-122.685471,0
2747,2747,NE 25th Ave & 91st St,45.68779,-122.646347,0
2148,2148,Mill Plain & 14900 Block,45.61694,-122.518059,0
2149,2149,Mill Plain & 15400 Block,45.616508,-122.514053,0
102,102,Evergreen & Park & Ride,45.6343,-122.531487,0
1041,1041,Stapleton & 18th St,45.635231,-122.616386,0
104,104,Van Mall Loop & Van Mall Transit Center,45.659351,-122.583542,0
105,105,Salmon Creek & Park and Ride,45.721519,-122.659843,0
106,106,Fisher's Landing & Transit Center,45.594246,-122.505013,0
2156,2156,SE 164th Ave & 12th St,45.611679,-122.504372,0
2158,2158,NW 6th Ave & Logan St,45.58268,-122.424042,0
2159,2159,NW 6th Ave & 400 Block,45.584888,-122.413544,0
112,112,Andresen & Park & Ride,45.642601,-122.600487,0
2161,2161,Gher Rd & Coxley Dr,45.663181,-122.56015,0
3277,3277,Grand & Mill Plain,45.628601,-122.640549,0
2750,2750,NE 99th St & 26th Ave,45.693211,-122.643494,0
1044,1044,Burton & 92nd Ave,45.639599,-122.577957,0
2172,2172,Gher Rd & Coxley Dr,45.66325,-122.559959,0
2173,2173,NE 76th St & 101st Ave,45.677719,-122.56929,0
2179,2179,NE 112th Ave & 49th St,45.65691,-122.558121,0
2182,2182,NE 112th Ave & 42nd St,45.652111,-122.558006,0
1047,1047,Burton & 7700 Block,45.640301,-122.593452,0
4121,4121,Covington Rd & 102nd Ave,45.67149,-122.567932,0
2203,2203,NE 112th Ave & 3300 Block,45.647129,-122.558128,0
4165,4165,Jefferson & 12th St,45.630562,-122.681374,0
2733,2733,NE 78th St & St Johns,45.67886,-122.623932,0
3074,3074,SE Grace Ave & 4th St,45.778069,-122.52771,0
4123,4123,NE 102nd Ave & 63rd St,45.667439,-122.568649,0
2212,2212,Hwy 99 & 99th St,45.69379,-122.656097,0
2213,2213,Hwy 99 & 11200 Block,45.702179,-122.651573,0
2216,2216,Hwy 99 & 117th,45.705921,-122.649689,0
2218,2218,Hwy 99 & 11300 Block,45.703461,-122.651093,0
2221,2221,Hwy 99 & WalMart,45.686993,-122.660126,0
2224,2224,Hwy 99 & 68th St,45.671661,-122.66349,0
2225,2225,Hwy 99 & 6300 Block,45.668621,-122.664078,0
2231,2231,NE 99th St & 4th Ave,45.69294,-122.673599,0
2233,2233,NW 99th St & 100 Block,45.692982,-122.67131,0
2237,2237,NE 28th St & 138th Ave,45.642979,-122.53154,0
2241,2241,Burton & 83rd Ave,45.640148,-122.589218,0
2242,2242,NE 25th St & Andresen,45.640709,-122.599419,0
211,211,W Main St & 20th Ave,45.780529,-122.557617,0
217,217,Andresen & Fourth Plain,45.644039,-122.600601,0
2767,2767,Columbia St & 100 Block,45.622578,-122.673965,0
2268,2268,NE 76th St & 124th Ave,45.677681,-122.545982,0
2270,2270,NE 76th St & 120th Ave,45.677792,-122.550049,0
2272,2272,NE 102nd Ave & Fourth Plain,45.662846,-122.568359,0
2768,2768,Columbia Wy & 100 Block,45.62141,-122.67173,0
2274,2274,Fourth Plain & 10200 Block,45.661991,-122.568031,0
227,227,McLoughlin & Clark College,45.632221,-122.652084,0
2277,2277,Fourth Plain & 135th Ave,45.671711,-122.534653,0
2278,2278,Fourth Plain & 103rd Ave,45.662579,-122.5672,0
2769,2769,Columbia Wy & Riverfront Walkway,45.619362,-122.665001,0
2283,2283,NW 6th Ave & Georgia Pacific,45.585011,-122.411072,0
236,236,E 33rd St & Main  nearside,45.645348,-122.668175,0
2285,2285,6th Ave & 800 Block,45.584099,-122.418037,0
238,238,Fourth Plain & Andresen,45.64489,-122.599457,0
239,239,Fourth Plain & Grand,45.637901,-122.641403,0
243,243,Evergreen Blvd & Grand,45.62603,-122.640213,0
3383,3383,NE 3rd Ave & Wedgewood Ct,45.588539,-122.381538,0
252,252,Addy St & Addy Loop,45.57325,-122.321617,0
1066,1066,NE 28th St & 109th Ave,45.642311,-122.56237,0
2091,2091,St Johns & 93rd St,45.688702,-122.621727,0
3282,3282,W 33rd St & Columbia,45.645512,-122.673447,0
2314,2314,NE 3rd Ave & E 1st Ave,45.588829,-122.392616,0
2315,2315,NE 3rd Ave & Crown Rd,45.588718,-122.38961,0
2316,2316,NE 3rd Ave & 1800 Block,45.58857,-122.387657,0
2318,2318,NE 3rd Ave & 3rd Loop,45.588421,-122.381203,0
2319,2319,NE 3rd Ave & 2700 Block,45.588413,-122.378815,0
2320,2320,NE 3rd Ave & 2800 Block,45.588402,-122.376358,0
2321,2321,NE 3rd Ave & Shepherd Rd,45.58836,-122.375023,0
2322,2322,NE 3rd Ave & 3100 Block,45.586632,-122.371643,0
2323,2323,NE 3rd Ave & LaCamas Center,45.585369,-122.370239,0
2324,2324,NE 3rd Ave & 3500 Block,45.584148,-122.368858,0
2325,2325,E St & 600 Block,45.583111,-122.367691,0
729,729,Main & 30th St,45.643085,-122.669952,0
2329,2329,E St & 1200 Block,45.581249,-122.358612,0
2331,2331,E St & Washougal River Rd,45.581131,-122.354607,0
2333,2333,E St & 2200 Block,45.580887,-122.349373,0
2334,2334,E St & 24th  St,45.580463,-122.347023,0
2336,2336,Evergreen Wy & 3100 Block,45.578571,-122.337646,0
290,290,NE 3rd Ave & 3rd Pl,45.588799,-122.395142,0
293,293,Burton & 98th Ave,45.640198,-122.571655,0
294,294,St Johns & 88th St,45.68668,-122.624512,0
4145,4145,Hwy 99 & 129th St,45.714962,-122.65136,0
296,296,Hazel Dell Ave & 63rd St,45.668266,-122.668579,0
2345,2345,Addy St & 3900 Block,45.573639,-122.326851,0
2346,2346,Addy St & 3700 Block,45.574581,-122.328781,0
2347,2347,AAddy St & 3500 Block,45.574291,-122.331284,0
2348,2348,Addy St & 3300 Block,45.575329,-122.334,0
301,301,NE 136th Ave & 9th St,45.628139,-122.534767,0
2350,2350,Main St & 3000 Block,45.577641,-122.33873,0
2351,2351,Main & 28th St,45.57798,-122.341881,0
2352,2352,Main St & 2500 Block,45.578232,-122.344429,0
2353,2353,Main & 22nd St,45.578541,-122.349007,0
306,306,Park Crest Ave & 152nd Ave,45.61467,-122.516197,0
4147,4147,Hazel Dell Ave & 60th St,45.665871,-122.668983,0
308,308,Village Loop & 162nd Ave,45.600159,-122.506027,0
309,309,Park Crest Ave & 7th St,45.61565,-122.52211,0
310,310,Village Loop & Fernwood,45.60181,-122.509132,0
3465,3465,NW 9th Ave & 87th St,45.685619,-122.679581,0
312,312,Park Crest Ave & 152nd Ave,45.614506,-122.51577,0
313,313,Park Crest Ave & 800 Block ,45.615219,-122.519585,0
314,314,Park Crest Ave & 800 Block ,45.615181,-122.52005,0
315,315,St Johns & 78th St,45.679428,-122.625481,0
316,316,NE 136th Ave & 200 Block ,45.621269,-122.533989,0
317,317,NE 136th Ave & 4th St,45.623539,-122.5345,0
318,318,NE 136th Ave & 9th St,45.629261,-122.534523,0
2367,2367,Mill Plain & Hearthwood,45.617378,-122.522079,0
320,320,Blairmont & Mt View HS,45.611435,-122.516258,0
321,321,Fourth Plain & St Johns,45.639145,-122.653908,0
322,322,Ward Rd & 76th St,45.67701,-122.518837,0
323,323,Village Loop & McGillivray,45.604172,-122.508369,0
324,324,NE 136th Ave & Firstenburg Center,45.62537,-122.534889,0
325,325,NE 138th Ave & 18th St,45.63501,-122.5308,0
326,326,NE 138th Ave & 18th St,45.634121,-122.530861,0
2875,2875,Fourth Plain & 6900 Block,45.64465,-122.602089,0
330,330,NE 138th Ave & 28th St,45.64175,-122.530807,0
331,331,Blairmont & 16th Cir,45.608959,-122.520393,0
332,332,NE 136th Ave & 1400 Block,45.632462,-122.534477,0
2381,2381,W Main St & 12th Ave,45.780609,-122.54953,0
2382,2382,W Main & 5th Ave,45.780689,-122.542923,0
2383,2383,E Main St & 500 Block,45.780899,-122.532181,0
3128,3128,Burton & 87th Ave,45.639694,-122.584114,0
2395,2395,NE 117th Ave & 149th St,45.72908,-122.552498,0
2399,2399,NE 117th Ave & 9000 Block,45.688381,-122.552696,0
3285,3285,Kauffman & Fourth Plain,45.640617,-122.681023,0
3131,3131,Andresen & Louisiana,45.61985,-122.602051,0
3132,3132,Andresen & Gulf Dr,45.617588,-122.60199,0
2410,2410,NW 119th St & Felida Elementary,45.707153,-122.700546,0
2411,2411,NW 119th St & 31st Ave,45.707291,-122.702766,0
744,744,NW 9th Ave & 78th St,45.679379,-122.679703,0
4161,4161,NE 76th St & 115th Ave,45.677723,-122.555519,0
4162,4162,St Johns & 68th St,45.6716,-122.636482,0
2116,2116,Mill Plain & Devine,45.62883,-122.613907,0
2462,2462,MacArthur Blvd & Sportsfield,45.62257,-122.609444,0
2463,2463,MacArthur Blvd & Tennis Courts,45.621231,-122.60508,0
1173,1173,E St & 2600 Block,45.579941,-122.343018,0
2484,2484,MacArthur Blvd & McLoughlin Middle School,45.62352,-122.611641,0
2485,2485,MacArthur Blvd & Devine Rd,45.623997,-122.61348,0
2489,2489,Hwy 99 & 122nd St,45.70916,-122.6493,0
6016,6016,SW Campus Dr & Loading Dock 5,45.49884,-122.685104,0
1100,1100,Fourth Plain & 112th Ave,45.665939,-122.558434,0
303,303,NE 136th Ave & 200 Block ,45.62112,-122.534416,0
3492,3492,Mill Plain & Franklin,45.632591,-122.678131,0
4175,4175,NW 119th St & 2100 Block,45.707352,-122.693321,0
3221,3221,NE 117th Ave & 87th St,45.685329,-122.552399,0
4177,4177,Bliss Rd & 26th Ave,45.72607,-122.69796,0
2403,2403,W Main & 20th Ave,45.780651,-122.557648,0
4178,4178,NW 139th St & HB Fuller Park,45.72168,-122.675636,0
3181,3181,NE Multnomah & Grand,45.531483,-122.660301,0
2267,2267,NE 76th St & 126th Ave,45.677589,-122.543167,0
504,504,Kauffman & 19th St,45.635246,-122.681046,0
505,505,Kauffman & 23rd St,45.638191,-122.680962,0
2210,2210,Hwy 99 & 6600 Block,45.6703,-122.663399,0
4181,4181,Bliss Rd & 26th Ave,45.72612,-122.69738,0
514,514,Fruit Valley Rd & Fruit Valley Park,45.644939,-122.692589,0
515,515,Fruit Valley Rd & 31st St,45.643539,-122.692619,0
516,516,Fruit Valley Rd & 27th St,45.64143,-122.692657,0
2745,2745,NE 99th St & Gaiser Middle School,45.693253,-122.638847,0
631,631,Broadway & 7th St,45.626251,-122.670502,0
524,524,Kauffman Ave & 22nd St,45.637615,-122.681084,0
525,525,Kauffman & 19th St,45.635098,-122.681137,0
526,526,Kauffman Ave & 14th St,45.632069,-122.681183,0
3160,3160,N Williams & Wheeler,45.533352,-122.666603,0
533,533,Columbia & McLoughlin Blvd,45.635288,-122.673698,0
534,534,Columbia & 20 St,45.636871,-122.673637,0
535,535,Columbia St & 24th St,45.639118,-122.673592,0
536,536,Columbia & 27th St,45.640881,-122.673569,0
537,537,Columbia & 29th St,45.64204,-122.673553,0
538,538,Columbia & 31st St,45.643848,-122.673531,0
540,540,W 33rd St & Daniels,45.645515,-122.675468,0
541,541,W 33rd St & Grant,45.645546,-122.67865,0
542,542,W 33rd St & Kauffman,45.64555,-122.68074,0
543,543,Columbia & 33rd St,45.645161,-122.673637,0
544,544,Columbia & 33rd St,45.645229,-122.673508,0
545,545,Lincoln & 41st St,45.651749,-122.682442,0
546,546,Lincoln & 43rd St,45.653389,-122.682449,0
547,547,Lincoln & 4500 Block,45.654911,-122.682388,0
548,548,Lincoln & 4600 Block,45.655949,-122.682419,0
549,549,Lincoln & 49th St,45.65789,-122.682419,0
550,550,Lincoln & 51st St,45.659409,-122.682419,0
551,551,Lincoln & 53rd St,45.661308,-122.682426,0
552,552,Lincoln & 5500 Block,45.662529,-122.682419,0
553,553,Lincoln & 59th St,45.66515,-122.682419,0
554,554,Lincoln & Bernie Dr,45.66819,-122.682449,0
558,558,Bernie Dr & 6400 Block,45.669315,-122.68486,0
559,559,Bernie Dr & Lincoln,45.668251,-122.682571,0
560,560,Lincoln & 59th St,45.66534,-122.68251,0
561,561,Lincoln & 55th Loop,45.662209,-122.682533,0
2883,2883,Fourth Plain & 121st Ave,45.66811,-122.549622,0
572,572,Columbia & 3100 Block,45.644291,-122.673653,0
573,573,Columbia & 29th St,45.642502,-122.673683,0
575,575,Columbia & 24th St,45.638924,-122.673706,0
576,576,Columbia & 20th St,45.636318,-122.673767,0
579,579,Washington & 13th St,45.63084,-122.672821,0
580,580,McLoughlin & D St,45.63483,-122.667969,0
581,581,McLoughlin & F St,45.634876,-122.666084,0
582,582,McLoughlin Blvd & 1000 Block,45.633949,-122.660912,0
583,583,McLoughlin & Ft Vancouver Wy,45.632931,-122.657806,0
4111,4111,Fourth Plain & 12300 Block,45.668941,-122.546608,0
780,780,NE 7th Ave & 101st St,45.693748,-122.664238,0
587,587,McLoughlin & W St,45.632347,-122.647026,0
588,588,McLoughlin & Z St,45.632439,-122.644081,0
589,589,McLoughlin Blvd & Grand,45.63245,-122.64138,0
2638,2638,W Main & 29th Ave,45.780602,-122.567101,0
597,597,NE 18th St & Brandt,45.634781,-122.630539,0
598,598,NE 18th St & Todd,45.634838,-122.632904,0
599,599,NE 18th St & Norris,45.634838,-122.637169,0
600,600,NE 18th St & Murton,45.635368,-122.638992,0
601,601,E 20th St & Grand,45.635876,-122.640991,0
603,603,Grand & 27th St,45.640244,-122.641769,0
604,604,Grand & 29th St,45.642281,-122.64167,0
605,605,Grand & 32nd St,45.64439,-122.641647,0
606,606,E 33rd St & Y St,45.645031,-122.644722,0
607,607,E 33rd St & W St,45.645069,-122.647423,0
608,608,E 33rd St & U St,45.645084,-122.64975,0
609,609,E 33rd St & S St,45.645054,-122.651291,0
610,610,E 33rd St & Q St,45.645111,-122.65448,0
2659,2659,E 33rd St & Main,45.64529,-122.668159,0
2660,2660,E 33rd St & L St,45.645039,-122.659897,0
2661,2661,E 33rd St & O St,45.645039,-122.656036,0
2662,2662,E 33rd St & Q St,45.645016,-122.654465,0
2663,2663,E 33rd St & S St,45.64502,-122.65107,0
2664,2664,E 33rd St & V St,45.64502,-122.64785,0
2665,2665,E 33rd St & Y St,45.645031,-122.64476,0
619,619,Broadway & 25th St,45.639679,-122.670448,0
2884,2884,NE 76th St & 144th Ave,45.677414,-122.52494,0
2672,2672,Columbia & Fourth Plain,45.640671,-122.673698,0
2673,2673,Evergreen Blvd & 400 Block,45.628761,-122.667999,0
626,626,Broadway & 19th St,45.635864,-122.670364,0
627,627,Broadway & 22nd St,45.637535,-122.670326,0
628,628,Broadway & 24th St,45.638828,-122.670288,0
2677,2677,Andresen & 40th St,45.651081,-122.601822,0
630,630,Broadway & 28th St,45.641441,-122.670212,0
2679,2679,Van Mall Dr & 7500 Block,45.657639,-122.596603,0
2680,2680,Van Mall Dr & Loowit Loop,45.658176,-122.591087,0
788,788,NW 9th Ave & 82nd St,45.6819,-122.679733,0
634,634,Broadway & 15th St,45.632984,-122.670395,0
635,635,Evergreen Blvd & Broadway,45.628811,-122.670334,0
636,636,E 8th Street & Main,45.6273,-122.671463,0
638,638,W 8th Street & Main,45.627178,-122.672012,0
2687,2687,Van Mall Dr & Thurston Wy,45.65831,-122.590729,0
2688,2688,Van Mall Dr & 7500 Block,45.657688,-122.596268,0
2689,2689,Van Mall Dr & 72nd Ave,45.657738,-122.59906,0
643,643,Grand & 32nd St,45.644032,-122.641769,0
644,644,Grand & 29th St,45.642242,-122.641708,0
645,645,Grand & 26th St,45.64024,-122.641838,0
2694,2694,NE 76th St & 10600 Block,45.677738,-122.564407,0
2695,2695,NE 76TH ST & 11005  EB,45.677761,-122.559509,0
648,648,E 20th St & Grand,45.635799,-122.640984,0
649,649,E 18th St & Murton,45.635292,-122.638962,0
650,650,E 18th St & 3200 Block,45.634808,-122.636742,0
651,651,E 18th St & 3600 Block,45.634781,-122.632942,0
652,652,E 18th St & Brandt,45.634739,-122.630409,0
2702,2702,Hazel Dell Ave & 82nd St,45.681221,-122.669136,0
2703,2703,Hazel Dell Ave & 8500 Block,45.683914,-122.669319,0
2705,2705,Hazel Dell Ave & Target,45.686642,-122.669189,0
2706,2706,NW 78th St & Fruit Valley Rd,45.6786,-122.691498,0
659,659,McLoughlin & Grand,45.632553,-122.64167,0
2708,2708,Bernie Dr & 6400 Block,45.66935,-122.684883,0
661,661,McLoughlin & W St,45.632359,-122.646988,0
2710,2710,NW 78th St & Fruit Valley Rd,45.678421,-122.691643,0
663,663,McLoughlin & Clark College,45.632431,-122.652939,0
664,664,McLoughlin & Ft Vancouver Wy,45.633011,-122.657562,0
665,665,McLoughlin & Marshall Center,45.633831,-122.660179,0
666,666,McLoughlin & F St,45.634911,-122.665947,0
667,667,McLoughlin & D St,45.634941,-122.668037,0
669,669,Broadway & 16th St,45.63353,-122.670593,0
670,670,Broadway & Mill Plain,45.632061,-122.670593,0
671,671,Broadway & 13th St,45.630772,-122.670601,0
672,672,Broadway & 11th St,45.62965,-122.67067,0
675,675,Fourth Plain & D St,45.640129,-122.668167,0
676,676,Fourth Plain & F St,45.640072,-122.665863,0
2725,2725,NE 99th St & 41st Ct,45.69326,-122.628693,0
678,678,Fourth Plain & T St,45.638725,-122.651299,0
679,679,Fourth Plain & Ft Vancouver Wy,45.638378,-122.647163,0
680,680,Fourth Plain & Z St,45.638138,-122.644112,0
796,796,Hazel Dell Ave & 68th St,45.67112,-122.667976,0
682,682,Fourth Plain & Norris,45.63763,-122.637886,0
683,683,Fourth Plain & Todd,45.637348,-122.632721,0
684,684,Fourth Plain & Falk Rd,45.63855,-122.625458,0
685,685,Caples & Post Office,45.640968,-122.62355,0
2734,2734,NE 78th St & 2800 Block,45.678829,-122.641701,0
687,687,Plomondon & Caples,45.642948,-122.624268,0
688,688,Plomondon & Stapleton,45.64386,-122.61763,0
689,689,Stapleton Rd & 2800 Block,45.64241,-122.616859,0
690,690,Fourth Plain & 57th Ave,45.641987,-122.613243,0
3187,3187,US Veterans Rd & Bldg 28,45.497009,-122.686493,0
692,692,Fourth Plain & 62nd Ave,45.643318,-122.608192,0
798,798,Hazel Dell Ave & 6000 Block,45.665791,-122.669098,0
694,694,Fourth Plain & 65th Ave,45.644112,-122.604408,0
2743,2743,NE 99th St & 25th Ave,45.693039,-122.645912,0
696,696,Fourth Plain & 78th Ave,45.646908,-122.592888,0
697,697,Fourth Plain & 8000 Block,45.64806,-122.590118,0
2746,2746,NE 25th Ave & 99th St,45.692551,-122.646347,0
799,799,Hazel Dell Ave & 5200 block,45.659981,-122.667442,0
700,700,Fourth Plain & Spokane Wy,45.653988,-122.579201,0
701,701,Van Mall Dr & 94th Ave,45.65839,-122.577637,0
702,702,Van Mall Dr & 94th Ave,45.658031,-122.576813,0
703,703,Fourth Plain & Spokane Wy,45.654041,-122.579567,0
704,704,Fourth Plain & Thurston Wy,45.65057,-122.584465,0
705,705,Fourth Plain & Pacific Wy,45.648739,-122.588997,0
706,706,Fourth Plain & 78th Ave,45.64666,-122.593933,0
710,710,Fourth Plain & 65th Ave,45.644138,-122.605453,0
711,711,Fourth Plain & 62nd Ave,45.643299,-122.609062,0
712,712,Fourth Plain & 6000 Block,45.642578,-122.611771,0
713,713,Fourth Plain & 57th Ave,45.64185,-122.614609,0
714,714,Stapleton & Fourth Plain,45.642029,-122.616699,0
715,715,Plomondon & Stapleton,45.643909,-122.61763,0
2765,2765,Columbia & 4th St,45.624207,-122.673798,0
718,718,Caples Rd & 2700 Block,45.640839,-122.623581,0
719,719,Fourth Plain & Falk Rd,45.638451,-122.626587,0
720,720,Fourth Plain & Rossiter Ln,45.637581,-122.633217,0
721,721,Fourth Plain & Norris,45.63784,-122.638351,0
722,722,Fourth Plain & Grand,45.63818,-122.642303,0
2851,2851,W 33rd St & Harney,45.645493,-122.679832,0
724,724,Fourth Plain & Ft Vancouver Wy,45.638649,-122.648392,0
725,725,Fourth Plain & T St,45.638802,-122.6511,0
726,726,Fourth Plain & St Johns,45.63924,-122.653877,0
3193,3193,SW Veterans Hospital Dr & SW Sam Jackson Rd,45.49905,-122.687263,0
728,728,Fourth Plain & F St,45.640228,-122.666901,0
2852,2852,W 33rd St & Franklin,45.645451,-122.67701,0
730,730,Main & 33rd St,45.646149,-122.668518,0
731,731,Main & 38th St,45.648548,-122.6679,0
733,733,Main & 40th St,45.65097,-122.66729,0
734,734,Main & 45th St,45.653198,-122.666725,0
2853,2853,W 33rd St & Daniels,45.64542,-122.675133,0
736,736,Hazel Dell Ave & Hazel Dell Wy,45.66898,-122.668289,0
737,737,Hazel Dell Ave & 68th St,45.670872,-122.667892,0
739,739,Hazel Dell Ave & Repass Rd,45.675369,-122.668404,0
740,740,Hazel Dell Ave & 76th St,45.676849,-122.66864,0
2790,2790,Columbia Wy & 1424 Block,45.61787,-122.657051,0
2791,2791,Columbia Wy & 100 Block,45.621582,-122.671349,0
2792,2792,Columbia St & 100 Block,45.622581,-122.673813,0
747,747,NW 9th Ave & 84th St,45.6833,-122.679604,0
748,748,NW 9th Ave & 9200 Block,45.688148,-122.679512,0
749,749,NW 9th Ave & 94th St,45.69001,-122.679482,0
750,750,NW 9th Ave & 9600 Block,45.691269,-122.679459,0
752,752,NW 99th St & 8th Ave,45.692829,-122.678741,0
753,753,NW 99th St & 4th Ave,45.692829,-122.673988,0
755,755,Hazel Dell Ave & 103rd St,45.69577,-122.6689,0
3185,3185,SW US Veterans Rd & Bldg 16,45.496521,-122.682243,0
4185,4185,Columbia & 35th St,45.647099,-122.673599,0
3251,3251,NE 78th St & 4200 Block,45.67881,-122.628464,0
768,768,Hwy 99 & 129th St,45.715118,-122.651642,0
305,305,SE 162nd Ave & Village Loop,45.599529,-122.505859,0
5004,5004,SW 5th & Main,45.516209,-122.679077,0
2828,2828,NE 50th Ave & St Johns,45.690102,-122.620323,0
781,781,Hazel Dell Ave & 105th St,45.69659,-122.669022,0
782,782,NE 9th Ave & 101st St,45.695358,-122.66304,0
783,783,NW 9th Ave & 99th St,45.692169,-122.679543,0
784,784,NW 9th Ave & 94th St,45.68985,-122.679581,0
786,786,NW 9th Ave & 92nd St,45.688221,-122.679619,0
787,787,NW 9th Ave & 85th St,45.68409,-122.679688,0
2836,2836,NW 78th St & 15th Ave,45.678619,-122.686722,0
789,789,NW 9th Ave & 79th St,45.679859,-122.679764,0
2838,2838,NW 78th St & 10th Ave,45.67873,-122.680351,0
2839,2839,NW 78th St & 12th Ave,45.678761,-122.684258,0
2840,2840,NW 78th St & 14th Ave,45.678749,-122.686157,0
793,793,Hazel Dell Ave & 7400 Block,45.676552,-122.668747,0
794,794,Hazel Dell Ave & 7200 Block,45.67506,-122.66848,0
2844,2844,Lincoln & 46th St,45.65514,-122.682564,0
2845,2845,Lincoln & 43rd St,45.65329,-122.682571,0
2846,2846,Lincoln & 41st St,45.651821,-122.682579,0
2847,2847,W 39th St & Kauffman,45.650021,-122.681427,0
800,800,Hazel Dell Ave & 4900 Block,45.657295,-122.666946,0
801,801,Main & 45th St,45.654221,-122.666748,0
803,803,Main & 39th St,45.64941,-122.667824,0
804,804,Main & 36th St,45.647877,-122.668221,0
805,805,Main St & 3400 Block,45.646091,-122.668709,0
110,110,99th Street TC & NE 7th Ave,45.690281,-122.663864,0
812,812,NE 117th Ave & Padden Parkway,45.68322,-122.552399,0
2861,2861,NE 76th St & 11100 Block,45.677818,-122.559731,0
2862,2862,NE 28th St & 119th Ave,45.642799,-122.55159,0
815,815,NE 117th Ave & 100th St,45.694054,-122.552666,0
816,816,NE 117th Ave & 107th St,45.69976,-122.55262,0
2865,2865,Van Mall Dr & 77th Ave,45.657711,-122.593872,0
818,818,NE 117th Ave & 11600 Block,45.70599,-122.55262,0
2868,2868,Bernie Dr & 6700 Block,45.671669,-122.687538,0
3195,3195,N Vancouver & Weidler,45.534512,-122.66777,0
2871,2871,Fourth Plain & General Anderson,45.640221,-122.621002,0
2872,2872,Fourth Plain & General Anderson,45.640263,-122.62001,0
820,820,NE 117th Ave & Caples Rd,45.730549,-122.552002,0
2874,2874,Fourth Plain & 72nd Ave,45.645199,-122.599007,0
827,827,W Main St & 800 Block,45.780651,-122.545967,0
828,828,W Main St & SW 3rd Ave,45.78075,-122.540031,0
829,829,W Main St & Parkway,45.780819,-122.536751,0
831,831,W Main & SE Clark Ave,45.78093,-122.529968,0
835,835,W Main & 3rd Ave,45.780918,-122.540077,0
836,836,W Main St & 600 Block,45.780819,-122.544487,0
2885,2885,NE 137th Ave & Sifton Elementary,45.67601,-122.531548,0
2886,2886,NE 162nd Ave & 15th St,45.632683,-122.506256,0
2887,2887,NE 162nd Ave & 11th St,45.62907,-122.506218,0
846,846,NE 117th Ave & 11500 Block,45.705601,-122.552948,0
848,848,NE 117th Ave & 107th St,45.699539,-122.55291,0
849,849,NE 117th Ave & 99th St,45.6931,-122.552948,0
850,850,NE 117th Ave & 95th St,45.690048,-122.552849,0
851,851,NE 117th Ave & 87th St,45.685349,-122.552689,0
852,852,NE 117th Ave & Padden Parkway,45.681438,-122.552689,0
853,853,NE 117th Ave & 76th St,45.678619,-122.552658,0
101,101,Parkrose/Sumner & TC MAX Station,45.558762,-122.564507,0
2909,2909,SE 164th Ave & Fred Meyer,45.605618,-122.503784,0
2279,2279,Fourth Plain & 14000 Block,45.67263,-122.528374,0
2912,2912,SE 192nd Ave & Mill Plain,45.617699,-122.475792,0
2915,2915,NE 162nd Ave & 9th St,45.628342,-122.50592,0
633,633,Broadway & 13th St,45.631329,-122.670456,0
2917,2917,NE 162nd Ave & 13th St,45.63208,-122.505966,0
2919,2919,Mill Plain & 172nd Ave,45.616859,-122.494667,0
2920,2920,Mill Plain & 190th Ave,45.616879,-122.478943,0
2925,2925,SE 192nd Ave & 1st St,45.620522,-122.476143,0
878,878,NE 76th St & 97th Ave,45.677689,-122.573128,0
2927,2927,NW 78th St & 10th Ave,45.6786,-122.680801,0
2928,2928,SE 164th Ave & 1st St,45.621841,-122.504173,0
2930,2930,Bernie Dr & Lupin St,45.670551,-122.686646,0
2932,2932,Mill Plain & 188th Ave,45.61581,-122.482277,0
2933,2933,Mill Plain & 177th Ave,45.616631,-122.493431,0
4152,4152,Hazel Dell Ave & 94th St,45.690239,-122.669151,0
3198,3198,SW Terwilliger & Campus,45.499279,-122.682617,0
3170,3170,NE Multnomah & 3rd,45.531151,-122.662933,0
2942,2942,Andresen & Van Mall Dr,45.65797,-122.60199,0
2943,2943,Andresen & 58th St,45.664589,-122.602074,0
2944,2944,Andresen & 63rd St,45.668468,-122.602142,0
2946,2946,Andresen & 78th St,45.67852,-122.602341,0
899,899,NE 76th St & 107th Ave,45.677811,-122.56395,0
900,900,NE 76th St & 103rd Ave,45.677799,-122.567162,0
2949,2949,Andresen & 58th St,45.66399,-122.602303,0
2951,2951,Van Mall Dr & 72nd Ave,45.657619,-122.599731,0
904,904,Covington Rd & 76th St,45.677429,-122.575928,0
905,905,Covington Rd & 73rd St,45.675362,-122.573242,0
906,906,Covington Rd & 101st Ave,45.673759,-122.57106,0
907,907,Covington Rd & 100th Ave,45.673851,-122.570892,0
2956,2956,Fourth Plain & Andresen,45.644531,-122.601753,0
2957,2957,Andresen & 70th St,45.673389,-122.603127,0
5006,5006,SW 5th & Columbia,45.514294,-122.680115,0
5007,5007,SW 5th & Clay,45.513592,-122.680496,0
5008,5008,SW 5th & Harrison,45.510895,-122.681969,0
2961,2961,NW 99th St & 12th Ave,45.692902,-122.683197,0
2962,2962,NW 99th St & 16th Ave,45.692902,-122.688499,0
2963,2963,NW 99th St & 20th Ave,45.692902,-122.691071,0
2964,2964,NW 21st Ave & 101st St,45.694328,-122.692719,0
2965,2965,NW 21st Ave & 10400 Block,45.69688,-122.69268,0
2966,2966,NW 21st Ave & 108th St,45.699478,-122.692688,0
2967,2967,NW 21st Ave & 111th St,45.701618,-122.692703,0
2969,2969,NW 119th St & 26th Ave,45.707169,-122.698486,0
2973,2973,Hathaway & 19th Ave,45.722912,-122.691628,0
2974,2974,NW 119th St & 31st Ave,45.707142,-122.70269,0
2977,2977,NW 21st Ave & 113th St,45.702919,-122.69278,0
2978,2978,NW 21st Ave & 111th St,45.701591,-122.692772,0
2979,2979,NW 21st Ave & 108th St,45.69936,-122.692818,0
932,932,NE 112th Ave & 39th St,45.650841,-122.558258,0
2981,2981,NW 21st Ave & 99th St,45.69339,-122.69278,0
934,934,NE 112th Ave & 46th St,45.655334,-122.557861,0
935,935,NE 112th Ave & 51st St,45.65844,-122.557899,0
2984,2984,NW 99th St & 900 Block,45.69278,-122.681267,0
937,937,NE 112th Ave & 46th St,45.654121,-122.558083,0
939,939,NE 112th Ave & 34th Cir,45.64703,-122.55835,0
2988,2988,NE 78th St & 13th Ave,45.678509,-122.658737,0
2989,2989,NW 9th Ave & 8200 Block,45.681831,-122.679619,0
2990,2990,NE 99th St & 50th Ave,45.6926,-122.621017,0
2991,2991,NE 78th St & 16th Ave,45.678535,-122.656021,0
2992,2992,NE 99th St & 50th Ave,45.69281,-122.621033,0
2993,2993,NE 78th St & 26th Ave,45.6786,-122.643913,0
2994,2994,NE 78th St & 30th Ave,45.678669,-122.639778,0
2996,2996,NE 78th St & 4800 Block,45.678638,-122.620918,0
2997,2997,NE 78th St & 5600 Block,45.67873,-122.613953,0
2998,2998,NW 36th Ave & 122nd St,45.708771,-122.708122,0
2999,2999,NW 36th Ave & 124th St,45.7113,-122.708099,0
3000,3000,NW 36th Ave & 126th St,45.712639,-122.708031,0
3001,3001,NW 36th Ave & 129th St,45.715031,-122.707977,0
3002,3002,Bliss Rd & 21st Ave,45.7239,-122.693619,0
3003,3003,Hathaway Rd & 1800 Block,45.72229,-122.689537,0
3005,3005,NW 139th St & 10th Ct,45.721642,-122.680023,0
3006,3006,NW 139th St & 2nd Ave,45.721699,-122.671623,0
3237,3237,NE 162nd Ave & 28th St,45.643299,-122.506119,0
3010,3010,NW 139th St & 2nd Ave,45.721821,-122.671387,0
3011,3011,NW 139th St & 11th Ave,45.721798,-122.683128,0
3012,3012,Bliss Rd & 1800 Block,45.722279,-122.688873,0
3013,3013,Hathaway Rd & 1900 Block,45.723091,-122.691628,0
3015,3015,NW 36th Ave & 131st St,45.71542,-122.70813,0
3016,3016,NW 36th Ave & 127th St,45.713169,-122.70816,0
3017,3017,NW 36th Ave & 124th St,45.710812,-122.708199,0
972,972,Ft Vancouver Wy & O'Connell Sports Ctr,45.63456,-122.655807,0
973,973,Ft Vancouver Wy & Gaiser Hall,45.636662,-122.651939,0
3022,3022,Hazel Dell Ave & 7900 Block,45.680019,-122.66922,0
975,975,Ft Vancouver Wy & 28th St,45.641548,-122.647636,0
3024,3024,Hazel Dell Ave & 94th St,45.689365,-122.669327,0
977,977,St Johns & 32nd St,45.6441,-122.644814,0
978,978,St Johns & Petticoat Ln,45.648479,-122.640297,0
979,979,St Johns & 41st St,45.65044,-122.637497,0
980,980,St Johns & 4200 Block,45.652538,-122.636353,0
981,981,St Johns & 45th St,45.6549,-122.635941,0
982,982,St Johns & 49th St,45.657219,-122.635948,0
3031,3031,NE 78th St & Hwy 99,45.678661,-122.660103,0
984,984,St Johns & 54th St,45.661949,-122.636299,0
985,985,St Johns & 58th St,45.664028,-122.636368,0
986,986,St Johns & Minnehaha,45.667389,-122.636421,0
3035,3035,NE 99th St & 39th Ave,45.693138,-122.630913,0
989,989,St Johns & 37th Ave,45.67395,-122.63324,0
990,990,St Johns & 40th Ave,45.675468,-122.62986,0
3039,3039,NW 139th St & 1300 Block,45.72184,-122.685539,0
992,992,St Johns & 8200 Block,45.682163,-122.625511,0
3041,3041,NW 36th Ave & Salmon Creek Trail,45.721699,-122.707718,0
3043,3043,Seward Rd & Creekside Dr,45.721729,-122.707893,0
1190,1190,Mill Plain & Reserve,45.62838,-122.652992,0
3051,3051,NE 78th St & 3300 Block,45.678822,-122.638298,0
3057,3057,NE 99th St & 3400 Block,45.693119,-122.63559,0
3058,3058,NE 18th St & 65th Ave,45.63636,-122.60408,0
3060,3060,Andresen & 18th St,45.637016,-122.600258,0
1013,1013,St Johns & 8600 Block,45.684441,-122.625717,0
1014,1014,St Johns & 82nd St,45.682049,-122.625717,0
1015,1015,St Johns & 78th St,45.67815,-122.625809,0
1017,1017,St Johns & 37th Ave,45.673981,-122.633667,0
1018,1018,St Johns & 68th St,45.671829,-122.636551,0
1019,1019,St Johns & 65th St,45.669621,-122.636711,0
1020,1020,St James & Minnehaha,45.666611,-122.638138,0
3242,3242,Bernie Dr & Fruit Valley Rd,45.673222,-122.690376,0
1022,1022,St James & 54th St,45.660969,-122.638199,0
1023,1023,St James & 52nd St,45.65913,-122.638069,0
3072,3072,SW 20th Ave & 2nd St,45.779716,-122.55838,0
1026,1026,St James & 4300 Block,45.652851,-122.637779,0
3075,3075,Main & 40th St,45.651402,-122.667381,0
1028,1028,St Johns & 32nd St,45.643879,-122.645149,0
1030,1030,Ft Vancouver Wy & St Johns,45.64114,-122.647797,0
1031,1031,Ft Vancouver Wy & 25th St,45.638931,-122.647858,0
1032,1032,Ft Vancouver Wy & 1900 Block,45.63694,-122.651711,0
1033,1033,Ft Vancouver Wy & McLoughlin,45.63279,-122.658913,0
1037,1037,E 18th St & Bryant,45.634747,-122.626312,0
1038,1038,E 18th St & 4600 Block,45.634777,-122.621147,0
1039,1039,E 18th St & Carlson Rd,45.634731,-122.618019,0
1040,1040,E 18th St & Devine,45.634953,-122.615562,0
3089,3089,NE 39th St & 146th Ave,45.650211,-122.522018,0
3090,3090,NE 39th St & 152nd Ave,45.650269,-122.515923,0
1043,1043,Burton & Bridge Creek Ave,45.639881,-122.587593,0
3092,3092,NE 39th St & 157th Ave,45.650219,-122.512009,0
3093,3093,NE 39th St & 159th Ave,45.65028,-122.508781,0
1046,1046,NE 25th & Andresen,45.64064,-122.599411,0
3095,3095,NE 162nd Ave & 39th St,45.649899,-122.50618,0
1048,1048,Devine & Mill Plain,45.628071,-122.613701,0
1049,1049,Devine & Mill Plain,45.628201,-122.613564,0
3102,3102,NE 39th St & 162nd Ave,45.650398,-122.506851,0
3104,3104,NE 39th St & 155th Ave,45.650398,-122.512268,0
3105,3105,NE 39th St & 145th Ave,45.65028,-122.524353,0
3106,3106,NE 39th St & 141st Ave,45.650246,-122.528671,0
3107,3107,NE 138th Ave & 28th St,45.644039,-122.530609,0
1060,1060,NE 28th St & 13400 Block,45.642979,-122.534683,0
1062,1062,NE 28th St & 129th Ave,45.642918,-122.539948,0
1063,1063,NE 28th St & 124th Ave,45.642887,-122.545204,0
1064,1064,NE 28th St & Vocational Skills Center,45.642929,-122.548218,0
1065,1065,NE 28th St & 112th Ave,45.642849,-122.55677,0
3114,3114,Bernie Dr & Lupin St,45.670422,-122.68618,0
1067,1067,NE 28th St & 103rd Ave,45.641201,-122.567497,0
1068,1068,Burton & 98th Ave,45.640121,-122.572472,0
1070,1070,Burton & 92nd Ave,45.639664,-122.577827,0
3119,3119,NE 112th Ave & 44th St,45.653759,-122.557877,0
1074,1074,Burton & 7700 Block,45.640419,-122.593483,0
1075,1075,NE 18th St & Andresen,45.636696,-122.600739,0
1076,1076,NE 18th St & 65th Ave,45.63649,-122.605598,0
1077,1077,NE 18th St & Devine,45.635269,-122.614349,0
1078,1078,NE 18th St & Carlson,45.634838,-122.618034,0
1079,1079,NE 18th St & General Anderson,45.634804,-122.621078,0
1080,1080,NE 18th St & 4000 Block,45.6348,-122.62635,0
1082,1082,Fourth Plain & 10400 Block,45.663059,-122.565742,0
1083,1083,Fourth Plain & 10700 Block,45.663979,-122.563538,0
1084,1084,Fourth Plain & Gher Rd,45.665131,-122.560753,0
1085,1085,Fourth Plain & 112th Ave,45.665798,-122.558327,0
1086,1086,Fourth Plain & Vancouver Pl,45.666458,-122.555519,0
1087,1087,Fourth Plain & 121st Ave,45.668228,-122.548439,0
1088,1088,Fourth Plain & 123rd Ave,45.668869,-122.54599,0
1089,1089,Fourth Plain & 127th Ave,45.669922,-122.541748,0
1090,1090,Fourth Plain & 131st Ave,45.670921,-122.537666,0
1091,1091,Fourth Plain & 137th Ave,45.672421,-122.531242,0
1092,1092,Fourth Plain & 140th Ave,45.672428,-122.527397,0
1093,1093,Ward Rd & 71st St,45.674389,-122.520111,0
1094,1094,Fourth Plain & 11300 Block,45.66634,-122.556808,0
1095,1095,NE 76th St & Ward Rd,45.67741,-122.519371,0
1096,1096,NE 76th St & 147th Ave,45.67746,-122.522636,0
1097,1097,NE 76th St & 137th Ave,45.677521,-122.53228,0
1098,1098,NE 76th St & 13300 Block,45.677551,-122.535561,0
1099,1099,NE 76th St & 130th Ave,45.67754,-122.5401,0
3148,3148,Mill Plain & 126th Ave,45.619934,-122.543777,0
1102,1102,Fourth Plain & 10700 Block,45.664459,-122.562759,0
1103,1103,Fourth Plain & 105th Ave,45.66362,-122.564934,0
1104,1104,Evergreen Blvd & C St,45.628696,-122.669815,0
1105,1105,Evergreen Blvd & Grant House,45.62785,-122.659943,0
1106,1106,Evergreen Blvd & 1400 Block,45.627129,-122.656792,0
1107,1107,Evergreen Blvd & Reserve St,45.62606,-122.65448,0
1108,1108,Evergreen Blvd & S St,45.625889,-122.652496,0
1109,1109,Evergreen Blvd & V St,45.625809,-122.648308,0
1110,1110,Evergreen Blvd & Z St,45.625999,-122.643608,0
1112,1112,Evergreen Blvd & Ash St,45.62579,-122.636559,0
1114,1114,Evergreen Blvd & Harney Wy,45.62376,-122.629013,0
1115,1115,Evergreen Blvd & Fairview Dr,45.622921,-122.625816,0
1116,1116,Evergreen Blvd & 4700 Block,45.622208,-122.623718,0
1117,1117,Evergreen Blvd & 5th St,45.62009,-122.619858,0
1118,1118,Andresen & Evergreen Blvd,45.614769,-122.603767,0
1119,1119,Andresen & MacArthur Blvd,45.621117,-122.602074,0
1120,1120,Andresen & 18th St,45.637093,-122.600082,0
1121,1121,Andresen & WINCO,45.639244,-122.600052,0
1122,1122,Andresen & LH Church,45.64135,-122.600616,0
3171,3171,NE Wheeler & Multnomah,45.531364,-122.665939,0
3172,3172,NE Multnomah & 3rd,45.531029,-122.662827,0
3173,3173,NE Multnomah & Grand,45.531559,-122.66037,0
3175,3175,NE Multnomah & 9th,45.531559,-122.657158,0
3176,3176,Multnomah & 11th,45.531418,-122.653908,0
3178,3178,NE 13th Ave & Holladay,45.530281,-122.652603,0
3179,3179,NE Multnomah & 9th,45.531372,-122.656769,0
1132,1132,Andresen & Fourth Plain,45.64378,-122.600861,0
1133,1133,Andresen Rd & 2700 Block,45.641842,-122.600899,0
1134,1134,Andresen & WINCO,45.639091,-122.60022,0
1135,1135,Andresen & Kansas St,45.627632,-122.601738,0
1136,1136,Andresen & Wichita Dr,45.623779,-122.60183,0
1137,1137,Andresen & Missouri Dr,45.621475,-122.602303,0
1138,1138,Andresen & Evergreen Blvd,45.61454,-122.604118,0
1139,1139,Evergreen Blvd & 4700 Block,45.622082,-122.62336,0
1140,1140,Evergreen Blvd & 5th St,45.620258,-122.620049,0
1141,1141,Evergreen Blvd & 4100 Block,45.622978,-122.62574,0
1142,1142,Evergreen Blvd & Harney Wy,45.623951,-122.629211,0
1144,1144,Evergreen Blvd & Grove St,45.62611,-122.637428,0
1145,1145,Evergreen Blvd & Grand,45.626099,-122.639961,0
1146,1146,Evergreen Blvd & 2500 Block,45.625938,-122.645218,0
1147,1147,Evergreen Blvd & V St,45.625851,-122.648453,0
1149,1149,Evergreen Blvd & 1400 Block,45.626778,-122.655518,0
1150,1150,Evergreen Blvd & Grant House,45.627972,-122.660294,0
1151,1151,Evergreen Blvd & 800 Block,45.628689,-122.66423,0
3200,3200,NW 99th Street & 200 Block,45.692879,-122.672302,0
3202,3202,E 33rd St & I St,45.645039,-122.662491,0
3203,3203,NE 137th Ave & 39th St,45.649712,-122.531693,0
3205,3205,NE 137th Ave & 39th St,45.649658,-122.531929,0
3206,3206,NE 78th St & 1700 Block,45.678509,-122.653618,0
3209,3209,Multnomah & 11th Quick Stop,45.531509,-122.654762,0
3266,3266,W 39th St & Kauffman,45.650108,-122.680611,0
1168,1168,NE 3rd Ave & Joy St,45.58823,-122.397652,0
1169,1169,NE 3rd Ave & 1400 Block,45.588688,-122.396698,0
1171,1171,E St & 1700 Block,45.581017,-122.352348,0
2926,2926,NW 78th St & 12th Ave,45.678638,-122.684319,0
1176,1176,Main St & 24th St,45.578499,-122.346519,0
1177,1177,Main St & 2000 Block,45.578571,-122.350647,0
1178,1178,C St & Pendleton,45.5793,-122.354111,0
879,879,NE 76th St & 103rd Ave,45.677711,-122.5672,0
3229,3229,NE 39th St & 141st Ave,45.650196,-122.527878,0
3230,3230,NE 39th St & Rancho Dr,45.650379,-122.52002,0
3232,3232,NE 162nd Ave & 34th St,45.646191,-122.506218,0
3233,3233,NE 162nd Ave & 18th St,45.636349,-122.506042,0
3234,3234,NE 162nd Ave & 23rd St,45.639851,-122.505997,0
3235,3235,NE 162nd Ave & 28th St,45.643341,-122.505981,0
3236,3236,NE 162nd Ave & 34th St,45.647327,-122.505959,0
1189,1189,Mill Plain & Ft Vancouver Wy,45.630333,-122.660622,0
3238,3238,NE 162nd Ave & 23rd St,45.639118,-122.506248,0
3239,3239,NE 162nd Ave & 18th St,45.636059,-122.506248,0
1192,1192,Mill Plain & V St,45.628281,-122.648071,0
1193,1193,Mill Plain & Z St,45.628231,-122.64418,0
1194,1194,Mill Plain & Grand,45.628265,-122.640022,0
1196,1196,Mill Plain & Rhododendron,45.62801,-122.628555,0
1197,1197,Mill Plain & Manzanita Wy,45.62854,-122.624771,0
1199,1199,Mill Plain & Ogden,45.62862,-122.617889,0
1200,1200,Mill Plain & Devine,45.628731,-122.613251,0
1202,1202,Mill Plain & 6600 Block,45.627209,-122.604179,0
1203,1203,Mill Plain & Andresen,45.626423,-122.600121,0
1205,1205,Mill Plain & Morrison Wy,45.625259,-122.595055,0
3254,3254,Hwy 99 & NE 104th St,45.696602,-122.654587,0
3273,3273,Grand & 1st St,45.621078,-122.643349,0
1210,1210,NE 12th St & 8600 Block,45.629791,-122.584259,0
3259,3259,W 15th St & 400 Block,45.63261,-122.674973,0
3260,3260,Mill Plain & Franklin,45.632801,-122.677803,0
3261,3261,Columbia & 35th St,45.64682,-122.6735,0
1214,1214,Mill Plain & 89th Ave,45.622581,-122.580956,0
1215,1215,Mill Plain & 92nd Ave,45.621937,-122.578018,0
3264,3264,W 39th St & Franklin,45.650082,-122.676651,0
1217,1217,Mill Plain & 102nd Ave,45.620899,-122.567497,0
1218,1218,Mill Plain & 105th Ave,45.620911,-122.563866,0
3275,3275,Grand & 6th St,45.624676,-122.640579,0
1220,1220,Mill Plain & 11700 Block,45.62056,-122.551407,0
1222,1222,Mill Plain & 123rd Ave,45.619942,-122.545937,0
1224,1224,Mill Plain & 131st Ave,45.618938,-122.536728,0
1225,1225,Mill Plain & 131st Ave,45.61937,-122.538597,0
3274,3274,Grand & 300 Block,45.622169,-122.643311,0
1227,1227,Mill Plain & 120th Ave,45.620613,-122.550018,0
3276,3276,Grand & 700 Block,45.626629,-122.640549,0
1229,1229,Mill Plain & 104th Ave,45.621025,-122.563873,0
1230,1230,Mill Plain & 9900 Block,45.621078,-122.57106,0
1231,1231,Mill Plain & 97th Ave,45.621281,-122.573921,0
3280,3280,Grand & Fourth Plain,45.638607,-122.641754,0
1233,1233,Mill Plain & 92nd Ave,45.622311,-122.578911,0
1234,1234,Mill Plain & 90th Ave,45.622673,-122.580887,0
3283,3283,Kauffman & 3100 Block,45.644379,-122.680969,0
1236,1236,NE 87th Ave & Vancouver Clinic,45.625805,-122.583572,0
1237,1237,NE 87th Ave & 900 Block,45.627666,-122.583588,0
1239,1239,NE 12th St & 82nd Ave,45.630039,-122.588913,0
1240,1240,Garrison Rd & David Douglas Park,45.628448,-122.591591,0
1241,1241,Garrison Rd & Michigan St,45.626129,-122.59156,0
1242,1242,Mill Plain & Morrison Ave,45.62558,-122.595718,0
2732,2732,NE 78th St & 58th Ave,45.678829,-122.611954,0
1244,1244,Mill Plain & Andresen,45.627048,-122.602364,0
1245,1245,Mill Plain & 6500 Block,45.627567,-122.605026,0
3294,3294,Kauffman & 25th St,45.639481,-122.681038,0
3296,3296,Kauffman & 29th St,45.642731,-122.680878,0
1249,1249,Mill Plain & Manzanita Wy,45.628639,-122.625847,0
1250,1250,Mill Plain & Brandt Rd,45.627872,-122.629486,0
1251,1251,Mill Plain & Grand,45.6283,-122.639961,0
1252,1252,Mill Plain & Z St,45.628361,-122.64463,0
1254,1254,Mill Plain & V St,45.628326,-122.648148,0
3303,3303,Grand & 13th St,45.630199,-122.640762,0
3304,3304,Grand & 9th St,45.627239,-122.640732,0
1257,1257,Mill Plain & Ft Vancouver Wy,45.630367,-122.660439,0
3306,3306,Grand & 6th St,45.625019,-122.640717,0
3307,3307,NE 112th Ave & 28th St,45.643341,-122.557793,0
1260,1260,MacArthur Blvd & Texas Dr,45.623177,-122.611115,0
1261,1261,MacArthur Blvd & Burdick Ave,45.62183,-122.60704,0
3310,3310,NE 105th St & Hazel Dell Ave,45.696918,-122.668083,0
3312,3312,NE 9th Ave & 105th St,45.69664,-122.6632,0
3313,3313,NE 7th Ave & 101st St,45.693684,-122.66436,0
3314,3314,Burton & 103rd Ave,45.641247,-122.566696,0
3315,3315,Burton & 109th Ave,45.642284,-122.561737,0
3316,3316,NE 29th St & 114th Ave,45.642696,-122.556503,0
3317,3317,NE 28th St & 119th Ave,45.642712,-122.550552,0
3319,3319,NE 28th St & 12400 Block,45.642876,-122.545151,0
3320,3320,NE 28th St & 129th Ave,45.64286,-122.539726,0
3284,3284,Kauffman & 29th St,45.642632,-122.680977,0
3322,3322,NE 28th St & 135th Ave,45.642872,-122.533478,0
6015,6015,NE 139th St & 3rd Ct,45.721889,-122.668472,0
3325,3325,Andresen & 4200 Block,45.651909,-122.602188,0
1278,1278,McGillivray & Park Crest Ave,45.605751,-122.516663,0
1279,1279,McGillivray & Briarwood Dr,45.605148,-122.513023,0
1281,1281,SE 164th Ave & 2100 Block,45.605885,-122.504135,0
1282,1282,McGillivray & Briarwood Dr,45.605419,-122.513817,0
1283,1283,McGillivray & Park Crest Ave,45.606232,-122.517197,0
1284,1284,Blairmont & SE 17th St,45.609631,-122.519463,0
111,111,Delta Park/Vanport & MAX Station,45.596157,-122.685493,0
3343,3343,NE 99th St & 122nd Ave,45.693501,-122.547287,0
3344,3344,NE 99th St & 126th Ave,45.693508,-122.543358,0
3288,3288,W 8th St & 300 Block,45.6273,-122.674889,0
3346,3346,NE 99th St & 134th Ave,45.693569,-122.533997,0
2947,2947,Andresen & 70th St,45.673351,-122.603371,0
3348,3348,NE 99th St & 149th Ave,45.69376,-122.520576,0
1301,1301,MacArthur Blvd & Burdick Ave,45.622238,-122.60759,0
1302,1302,MacArthur Blvd & Sportfield,45.62278,-122.609322,0
3289,3289,Franklin & 9th St,45.627918,-122.677063,0
3352,3352,NE 152nd Ave & 80th St,45.680771,-122.516411,0
2948,2948,Andresen & 63rd St,45.667461,-122.602341,0
1306,1306,NE 136th Ave & Mill Plain,45.61982,-122.532257,0
1307,1307,Mill Plain & 14100 Block,45.617939,-122.52758,0
3356,3356,Mill Plain & Lieser Rd,45.623173,-122.584694,0
1309,1309,MacArthur Blvd & Tennis Courts,45.621399,-122.60495,0
1310,1310,SE 164th Ave & 900 Block,45.614979,-122.504494,0
901,901,NE 76th St & 101st Ave,45.677792,-122.569794,0
1312,1312,Mill Plain & 16000 Block,45.615608,-122.506706,0
3361,3361,Mill Plain & Lieser Rd,45.62328,-122.58461,0
1314,1314,SE 164th Ave & McGillivray,45.603245,-122.503586,0
1315,1315,SE 164th Ave & McGillivray,45.603806,-122.504066,0
1316,1316,SE 164th Ave & 3200 Block,45.598961,-122.503677,0
1318,1318,SE 164th Ave & 32nd St,45.598701,-122.504066,0
1320,1320,Mill Plain & 164th Ave,45.615749,-122.505142,0
903,903,NE 76th St & 97th Ave,45.677792,-122.573013,0
3372,3372,E St & 15th St,45.581249,-122.355858,0
3373,3373,E St & 1100 Block,45.581379,-122.359421,0
3374,3374,E St & 9th St,45.581451,-122.362244,0
3293,3293,Kauffman & Mill Plain,45.632462,-122.68103,0
3376,3376,NE 3rd Ave & Weir,45.584572,-122.369057,0
1329,1329,Hwy 99 & Ross St,45.662369,-122.664932,0
1330,1330,Hwy 99 & 63rd St,45.668289,-122.663857,0
3379,3379,NE 3rd Ave & 2700 Block,45.588551,-122.378273,0
1332,1332,Hwy 99 & 7000 Block,45.673401,-122.66291,0
3381,3381,NE 3rd Ave & 2000 Block,45.58868,-122.386833,0
1334,1334,Hwy 99 & 99th St,45.693661,-122.656448,0
5001,5001,SW 5th & Alder,45.519558,-122.677284,0
1336,1336,Hwy 99 & 8500 Block,45.684727,-122.660873,0
1337,1337,Hwy 99 & 88th St,45.686459,-122.660103,0
1338,1338,Hwy 99 & 9100 Block,45.688648,-122.65892,0
1339,1339,Hwy 99 & 9400 Block,45.690681,-122.657837,0
1340,1340,Hwy 99 & 7700 Block,45.677521,-122.66214,0
5002,5002,SW 5th & Morrison,45.518875,-122.677658,0
1342,1342,Hwy 99 & 10600 Block,45.69833,-122.653641,0
1343,1343,Hwy 99 & 112th St,45.701641,-122.652046,0
1344,1344,Hwy 99 & 107th St,45.699921,-122.653,0
1345,1345,Hwy 99 & 104th St,45.697189,-122.65451,0
1346,1346,Hwy 99 & 7900 Block,45.680153,-122.661644,0
1347,1347,Hwy 99 & WINCO,45.691399,-122.657692,0
1349,1349,Hwy 99 & 86th St,45.684738,-122.661041,0
1350,1350,Hwy 99 & 82nd St,45.68211,-122.661568,0
2273,2273,Fourth Plain & 102nd Ave,45.66164,-122.569077,0
1352,1352,Hwy 99 & Fred Meyer,45.67704,-122.662491,0
1353,1353,Hwy 99 & 72nd St,45.673779,-122.663101,0
1354,1354,Hwy 99 & 6600 Block,45.670448,-122.663719,0
1355,1355,Hwy 99 & 63rd St,45.667198,-122.664322,0
1356,1356,Hwy 99 & Ross St,45.662277,-122.665245,0
3298,3298,W 33rd St & Columbia,45.645451,-122.673279,0
5005,5005,SW 5th & Madison,45.515549,-122.679413,0
1360,1360,W Main & 29th St,45.780399,-122.567101,0
2275,2275,Fourth Plain & 12500 Block,45.669559,-122.543335,0
890,890,NE 99th St & 118th Ave,45.693439,-122.550797,0
3300,3300,W 33rd St & Main,45.645409,-122.669228,0
3422,3422,NE 76th St & 142nd Ave,45.67754,-122.5271,0
1375,1375,W Main & 13th Ave,45.7808,-122.551392,0
1379,1379,Jefferson & 12th St,45.630241,-122.681541,0
1380,1380,W 11th St & Franklin,45.629551,-122.677307,0
1381,1381,Franklin & Evergreen Blvd,45.628651,-122.677155,0
1382,1382,W 8th St & 400 Block,45.627251,-122.67495,0
5009,5009,SW 5th & Hall,45.51025,-122.682388,0
1384,1384,W 6th St & Washington,45.625652,-122.672386,0
231,231,E 33rd St & Main  fairside ,45.645466,-122.669922,0
1393,1393,Andresen & Mill Plain,45.627495,-122.601555,0
1397,1397,SE 164th Ave & 5th St,45.618031,-122.504089,0
2911,2911,Mill Plain & 190th Ave,45.616669,-122.47908,0
3308,3308,Grand & 300 Block,45.622162,-122.643387,0
3476,3476,Mill Plain & Kauffman,45.63287,-122.681877,0
3477,3477,Mill Plain & 20th St,45.635689,-122.691032,0
3478,3478,Mill Plain & 2200 Block,45.636791,-122.693169,0
3479,3479,Mill Plain & Fourth Plain,45.639469,-122.694412,0
3480,3480,Mill Plain & Fourth Plain,45.63958,-122.694878,0
3481,3481,Mill Plain & 2200 Block,45.636589,-122.693291,0
3482,3482,Mill Plain & Thompson Ave,45.63541,-122.690987,0
3483,3483,Mill Plain & Lincoln,45.632641,-122.682663,0
3485,3485,SE 164th Ave & 6th St,45.61742,-122.504494,0
3486,3486,NE 152nd Ave & 94th St,45.690769,-122.516533,0
3487,3487,NE 152nd Ave & 91st St,45.688671,-122.516434,0
3253,3253,NE 78th St & 3300 Block,45.678661,-122.635948,0
3490,3490,Columbia Wy & Columbia Shores Blvd,45.617313,-122.652359,0
3491,3491,Columbia Wy & Columbia Shores Blvd,45.617249,-122.652428,0
3351,3351,NE 152nd Ave & 86th St,45.685101,-122.516457,0
3494,3494,NE 39th St & 149th Ave,45.650249,-122.519997,0
3495,3495,Grand & 1st St,45.620335,-122.643501,0
1071,1071,Burton & 84th Ave,45.639969,-122.586617,0
3498,3498,Hazel Dell Ave & 82nd St,45.681568,-122.669403,0
6048,6048,NE 3rd Ave & Franklin St,45.586349,-122.401138,0
3186,3186,US Veterans Hospital & US Veterans Rd,45.497059,-122.683296,0
2980,2980,NW 21st Ave & 10400 Block,45.696651,-122.692772,0
6011,6011,W Main St & 15th Ave,45.780796,-122.553398,0
933,933,NE 112th Ave & 39th St,45.650822,-122.558029,0
6003,6003,SW 6th & Salmon,45.516979,-122.679596,0
2982,2982,NW 99th St & 18th Ave,45.692791,-122.690353,0
2983,2983,NW 99th St & 12th Ave,45.69278,-122.683983,0
936,936,NE 112th Ave & 51st St,45.658371,-122.558121,0
3297,3297,Kauffman & 32nd St,45.64463,-122.68084,0
3188,3188,US Veterans Rd & 3505,45.497356,-122.688156,0
3329,3329,Mill Plain & Garrison Rd,45.62476,-122.592072,0
4143,4143,Hazel Dell Ave & 101st St,45.694321,-122.668983,0
2647,2647,Ft Vancouver Wy & McLoughlin,45.632919,-122.658333,0
2648,2648,Ft Vancouver Wy & Mill Plain,45.630154,-122.661987,0
2312,2312,NE 3rd Ave & 2100 Block,45.588402,-122.385139,0
1607,1607,VA Transit Center & VA Medical Center,45.63839,-122.656715,0
1611,1611,Jantzen Beach Main Stop & Center Ave,45.610699,-122.681396,0
1612,1612,N Hayden Island Dr & N Tomahawk Dr,45.61137,-122.677292,0
611,611,E 33rd St & O St,45.645084,-122.656937,0
612,612,E 33rd St & L St,45.645081,-122.659943,0
613,613,E 33rd St & H St,45.645191,-122.663979,0
3345,3345,NE 99th St & 130th Ave,45.693531,-122.53936,0
3347,3347,NE 99th St & 144th Ct,45.693699,-122.524452,0
3700,3700,WSU Vancouver & Salmon Creek Ave,45.731491,-122.63752,0
3701,3701,NE 139th St & 29th Ave,45.721851,-122.641579,0
3702,3702,NE 139th St & Legacy Hospital,45.721821,-122.649544,0
617,617,Main St & 30th St,45.642941,-122.670135,0
1300,1300,MacArthur Blvd & Andresen,45.6208,-122.602882,0
3706,3706,NE 134th St & 29th Ave,45.718529,-122.64035,0
3707,3707,NE 139th St & 29th Ave,45.721951,-122.641502,0
3708,3708,NE 139th St & 23rd Ave,45.72192,-122.646698,0
3711,3711,NE 139th St & 20th Ave,45.721989,-122.64949,0
3350,3350,NE 152nd Ave & 96th St,45.692619,-122.516563,0
2327,2327,E St & 9th St,45.581291,-122.361893,0
962,962,NW 6th Ave & Logan,45.582779,-122.42411,0
963,963,NW 6th Ave & Ivy,45.583549,-122.420769,0
1305,1305,Ft Vancouver Wy & 1200 Block,45.63007,-122.66246,0
964,964,NW 6th Ave & 6th Ave,45.58239,-122.426132,0
3741,3741,W Yacolt Rd & Railroad Ave,45.866879,-122.408119,0
5003,5003,SW 5th & Salmon,45.51693,-122.678726,0
1308,1308,Mill Plain & 14300 Block,45.617599,-122.524162,0
967,967,NW 6th Ave & 6th Ave,45.582249,-122.426086,0
3262,3262,Columbia & 38th St,45.649212,-122.673447,0
968,968,NW 6th Ave & Ivy,45.583382,-122.420609,0
3194,3194,SW Sam Jackson Pk & Campus Dr,45.50034,-122.684349,0
969,969,NW 6th Ave & Fargo,45.584476,-122.415894,0
2676,2676,Andresen & Van Mall Dr,45.657017,-122.602203,0
1311,1311,Mill Plain & Olympia Dr,45.618114,-122.526917,0
3703,3703,NE 139th St & Vancouver Clinic,45.721851,-122.645844,0
3263,3263,W 39th St & Daniels,45.650028,-122.674728,0
632,632,Broadway & Evergreen Blvd,45.62851,-122.670441,0
3363,3363,NE 87th Ave & 5th St,45.62347,-122.583557,0
974,974,Ft Vancouver Wy & 25th St,45.639389,-122.647598,0
3705,3705,Salmon Creek Ave & 134th St,45.719372,-122.638374,0
3026,3026,Hazel Dell Ave & 84th St,45.683819,-122.66951,0
2284,2284,Adams St & 5th Ave,45.585411,-122.406509,0
3028,3028,Hazel Dell Ave & 8900 Block,45.686989,-122.669403,0
639,639,Washington & 7th St,45.62635,-122.672867,0
3029,3029,NE 78th St & Andresen,45.678909,-122.603241,0
1323,1323,SE 164th Ave & 1st St,45.620289,-122.504433,0
1219,1219,Mill Plain & Chkalov Dr,45.6208,-122.554062,0
1324,1324,Mill Plain & 15800 Block,45.616112,-122.509079,0
983,983,St Johns & 52nd St,45.659981,-122.63604,0
3032,3032,NE 78th St & St Johns Rd,45.678638,-122.624893,0
302,302,NE 136th Ave & 4th St,45.623489,-122.534729,0
3033,3033,NE 78th St & 66th Ave,45.678783,-122.605453,0
2692,2692,NE 76th St & 115th Ave,45.677879,-122.554451,0
3375,3375,E St & 700 Block,45.582321,-122.366364,0
3034,3034,NE 99th St & 39th Ave,45.693241,-122.63134,0
304,304,Park Crest Ave & 7th St,45.615761,-122.522362,0
1256,1256,Mill Plain & Reserve,45.62854,-122.653069,0
3377,3377,NE 3rd Ave & 4th St,45.586498,-122.371262,0
3378,3378,NE 3rd Ave & Sheperd Rd,45.588539,-122.374657,0
3037,3037,NW 36th Ave & 122nd St,45.708488,-122.708252,0
2696,2696,NE 117th Ave & 78th Wy,45.678745,-122.552414,0
307,307,Village Loop & Fernwood,45.601311,-122.509216,0
3038,3038,NW 139th St & Sky View High School,45.7216,-122.685051,0
2771,2771,Columbia Wy & 1400 Block,45.617977,-122.658096,0
3380,3380,NE 3rd Ave & 1st Ave,45.588951,-122.392754,0
3382,3382,NE 3rd Ave & Joy,45.588188,-122.397942,0
311,311,Village Loop & McGillivray,45.603504,-122.508415,0
3385,3385,Adams & 5th Ave,45.5858,-122.406487,0
2021,2021,Fourth Plain & Caples,45.639618,-122.622307,0
3268,3268,W 39th St & Franklin,45.64996,-122.676842,0
6001,6001,SW 6th & Market,45.512943,-122.681808,0
6002,6002,SW 6th & Columbia,45.514282,-122.681068,0
6004,6004,SW 6th & Taylor,45.517605,-122.67923,0
6005,6005,SW 6th & Washington,45.520241,-122.677856,0
6006,6006,SW 6th & Stark,45.520966,-122.67749,0
6007,6007,NE 11th Ave & Holladay,45.529934,-122.654518,0
660,660,McLoughlin & Z St,45.632542,-122.644112,0
319,319,Blairmont & 152nd Ct,45.611362,-122.5158,0
6012,6012,Hwy 99 & Hazel Dell Plaza,45.68816,-122.659523,0
6013,6013,Jantzen Beach Main Stop & N Center Ave,45.610779,-122.68148,0
6014,6014,NE 139th St & 10th Ave,45.721729,-122.66214,0
2709,2709,Lakeshore Dr & Bernie,45.673531,-122.690804,0
908,908,Covington Rd & 76th St,45.677158,-122.575439,0
6017,6017,SW Campus Dr & Doernbecher,45.497978,-122.685783,0
6018,6018,SW Campus Dr & Main Dental School,45.498337,-122.683952,0
814,814,NE 117th Ave & 95th St,45.690849,-122.552612,0
6020,6020,Mill Plain & 18000 Block,45.615299,-122.486832,0
6021,6021,Mill Plain & 18000 Block,45.615501,-122.487541,0
6022,6022,NE 39th St & 152nd Ave,45.65033,-122.516502,0
6023,6023,Fruit Valley Rd & La Frambois,45.645599,-122.692322,0
6024,6024,Fruit Valley Rd & 37th St,45.648399,-122.692192,0
6025,6025,W 39th St & Fruit Valley Rd,45.650101,-122.69146,0
6026,6026,Fruit Valley Rd & 37th St,45.648602,-122.692383,0
6035,6035,NE 88th St & 19th Ave,45.685902,-122.65242,0
6036,6036,NE 88th St & 25th Ave,45.685913,-122.647652,0
6037,6037,NE 88th St & 25th Ave,45.686001,-122.647949,0
6038,6038,Fairgrounds Ave & Ball Park,45.783257,-122.52713,0
6039,6039,SE Rasmussen & Clark Ave,45.77541,-122.52977,0
6040,6040,SE Rasmussen & Parkway Ave,45.775002,-122.536919,0
6041,6041,SE Parkway Ave & 3rd St,45.779228,-122.53727,0
6042,6042,NE 197th & 1st Street,45.621601,-122.470917,0
6043,6043,Mill Plain & 172nd Ave,45.617298,-122.496468,0
6047,6047,NE 3rd Ave & Franklin St,45.58646,-122.401352,0
3270,3270,Columbia & 38th St,45.649281,-122.673561,0
6049,6049,Scotton Way & 13th St,45.76992,-122.549721,0
6050,6050,Scotton Way & 13th St,45.769741,-122.551758,0
1351,1351,Hwy 99 & 8000 Block,45.680012,-122.661949,0
329,329,NE 138th Ave & 22nd St,45.639088,-122.530563,0
3061,3061,Fruit Valley Rd & 27th St,45.64146,-122.692513,0
2000,2000,Kauffman & 17th St,45.633888,-122.681007,0
2001,2001,Kauffman & 21st St,45.636791,-122.680977,0
2003,2003,Kauffman & 17th St,45.633881,-122.681122,0
2004,2004,Columbia & 23rd St,45.638008,-122.673607,0
2748,2748,NE 25th Ave & 90th St,45.687809,-122.646202,0
2006,2006,Lincolin & 57th St,45.66375,-122.682419,0
2007,2007,Lincolin & 57th St,45.66375,-122.682518,0
2011,2011,Columbia & 23rd St,45.637749,-122.673752,0
2013,2013,Broadway & 19th St,45.635342,-122.670502,0
2726,2726,NE 99th St & 43rd Ave,45.693119,-122.62693,0
2023,2023,Fourth Plain & Stapleton,45.641289,-122.615921,0
2024,2024,Washington & 9th St,45.628426,-122.672768,0
2029,2029,Fourth Plain & 86th Ave,45.649929,-122.585533,0
2030,2030,Fourth Plain & Stapleton,45.64122,-122.617233,0
2032,2032,Plomondon & 4400 Block,45.64312,-122.623901,0
2033,2033,Fourth Plain & Wintler Dr,45.63937,-122.623734,0
3070,3070,SW 20th Ave & 6th St,45.776974,-122.558357,0
3071,3071,SW 20th Ave & 6th St,45.776943,-122.558182,0
2045,2045,Mill Plain & 102nd Ave,45.62101,-122.567596,0
4095,4095,NE 88th St & 15th Ave,45.685871,-122.655777,0
